id,name,lat,lng,baseline,city
wetherspoons,Wetherspoons (Court Leet),53.56807,-2.885286,6,Ormskirk
deansgate_locks,Deansgate Locks,53.4776,-2.2429,9,Manchester
cavern_club,The Cavern Club,53.408371,-2.991573,8,Liverpool
preston_central,Preston Central,53.7632,-2.7046,5,Preston
blackpool_tower,Blackpool Tower Area,53.8155,-3.0537,6,Blackpool
